[
  {"alpha2": "AF","alpha3": "AFG","continent": "Asia","island": false,"latitude": 33.93911,"longitude": 67.709953,"name": "Afghanistan","territory": false},
  {"alpha2": "AL","alpha3": "ALB","continent": "Europe","island": false,"latitude": 41.153332,"longitude": 20.168331,"name": "Albania","territory": false},
  {"alpha2": "DZ","alpha3": "DZA","continent": "Africa","island": false,"latitude": 28.033886,"longitude": 1.659626,"name": "Algeria","territory": false},
  {"alpha2": "AS","alpha3": "ASM","continent": "Oceania","island": false,"latitude": -14.270972,"longitude": -170.132217,"name": "American Samoa","territory": "US"},
  {"alpha2": "AD","alpha3": "AND","continent": "Europe","island": false,"latitude": 42.546245,"longitude": 1.601554,"name": "Andorra","territory": false},
  {"alpha2": "AO","alpha3": "AGO","continent": "Africa","island": false,"latitude": -11.202692,"longitude": 17.873887,"name": "Angola","territory": false},
  {"alpha2": "AI","alpha3": "AIA","continent": "North America","island": true,"latitude": 18.220554,"longitude": -63.068615,"name": "Anguilla","territory": "GB"},
  {"alpha2": "AQ","alpha3": "ATA","continent": "Antarctica","island": false,"latitude": -82.8628,"longitude": 135,"name": "Antarctica","territory": false},
  {"alpha2": "AG","alpha3": "ATG","continent": "North America","island": true,"latitude": 17.060816,"longitude": -61.796428,"name": "Antigua and Barbuda","territory": false},
  {"alpha2": "AR","alpha3": "ARG","continent": "South America","island": false,"latitude": -38.416097,"longitude": -63.616672,"name": "Argentina","territory": false},
  {"alpha2": "AM","alpha3": "ARM","continent": "Asia","island": false,"latitude": 40.069099,"longitude": 45.038189,"name": "Armenia","territory": false},
  {"alpha2": "AW","alpha3": "ABW","continent": "North America","island": true,"latitude": 12.52111,"longitude": -69.968338,"name": "Aruba","territory": "NL"},
  {"alpha2": "AU","alpha3": "AUS","continent": "Oceania","island": false,"latitude": -25.274398,"longitude": 133.775136,"name": "Australia","territory": false},
  {"alpha2": "AT","alpha3": "AUT","continent": "Europe","island": false,"latitude": 47.516231,"longitude": 14.550072,"name": "Austria","territory": false},
  {"alpha2": "AZ","alpha3": "AZE","continent": "Asia","island": false,"latitude": 40.143105,"longitude": 47.576927,"name": "Azerbaijan","territory": false},
  {"alpha2": "BH","alpha3": "BHR","continent": "Asia","island": false,"latitude": 25.930414,"longitude": 50.637772,"name": "Bahrain","territory": false},
  {"alpha2": "BD","alpha3": "BGD","continent": "Asia","island": false,"latitude": 23.684994,"longitude": 90.356331,"name": "Bangladesh","territory": false},
  {"alpha2": "BB","alpha3": "BRB","continent": "North America","island": true,"latitude": 13.193887,"longitude": -59.543198,"name": "Barbados","territory": false},
  {"alpha2": "BY","alpha3": "BLR","continent": "Europe","island": false,"latitude": 53.709807,"longitude": 27.953389,"name": "Belarus","territory": false},
  {"alpha2": "BE","alpha3": "BEL","continent": "Europe","island": false,"latitude": 50.503887,"longitude": 4.469936,"name": "Belgium","territory": false},
  {"alpha2": "BZ","alpha3": "BLZ","continent": "North America","island": false,"latitude": 17.189877,"longitude": -88.49765,"name": "Belize","territory": false},
  {"alpha2": "BJ","alpha3": "BEN","continent": "Africa","island": false,"latitude": 9.30769,"longitude": 2.315834,"name": "Benin","territory": false},
  {"alpha2": "BM","alpha3": "BMU","continent": "North America","island": true,"latitude": 32.321384,"longitude": -64.75737,"name": "Bermuda","territory": "GB"},
  {"alpha2": "BT","alpha3": "BTN","continent": "Asia","island": false,"latitude": 27.514162,"longitude": 90.433601,"name": "Bhutan","territory": false},
  {"alpha2": "BO","alpha3": "BOL","continent": "South America","island": false,"latitude": -16.290154,"longitude": -63.588653,"name": "Bolivia","territory": false},
  {"alpha2": "BA","alpha3": "BIH","continent": "Europe","island": false,"latitude": 43.915886,"longitude": 17.679076,"name": "Bosnia and Herzegovina","territory": false},
  {"alpha2": "BW","alpha3": "BWA","continent": "Africa","island": false,"latitude": -22.328474,"longitude": 24.684866,"name": "Botswana","territory": false},
  {"alpha2": "BR","alpha3": "BRA","continent": "South America","island": false,"latitude": -14.235004,"longitude": -51.92528,"name": "Brazil","territory": false},
  {"alpha2": "IO","alpha3": "IOT","continent": "Asia","island": true,"latitude": -7.2946856,"longitude": 72.4169061,"name": "British Indian Ocean Territory","territory": "GB"},
  {"alpha2": "VG","alpha3": "VGB","continent": "North America","island": true,"latitude": 18.420695,"longitude": -64.639968,"name": "British Virgin Islands","territory": "GB"},
  {"alpha2": "BN","alpha3": "BRN","continent": "Asia","island": false,"latitude": 4.535277,"longitude": 114.727669,"name": "Brunei","territory": false},
  {"alpha2": "BG","alpha3": "BGR","continent": "Europe","island": false,"latitude": 42.733883,"longitude": 25.48583,"name": "Bulgaria","territory": false},
  {"alpha2": "BF","alpha3": "BFA","continent": "Africa","island": false,"latitude": 12.238333,"longitude": -1.561593,"name": "Burkina Faso","territory": false},
  {"alpha2": "BI","alpha3": "BDI","continent": "Africa","island": false,"latitude": -3.373056,"longitude": 29.918886,"name": "Burundi","territory": false},
  {"alpha2": "KH","alpha3": "KHM","continent": "Asia","island": false,"latitude": 12.565679,"longitude": 104.990963,"name": "Cambodia","territory": false},
  {"alpha2": "CM","alpha3": "CMR","continent": "Africa","island": false,"latitude": 7.369722,"longitude": 12.354722,"name": "Cameroon","territory": false},
  {"alpha2": "CA","alpha3": "CAN","continent": "North America","island": false,"latitude": 56.130366,"longitude": -106.346771,"name": "Canada","territory": false},
  {"alpha2": "CV","alpha3": "CPV","continent": "Africa","island": false,"latitude": 16.002082,"longitude": -24.013197,"name": "Cape Verde","territory": false},
  {"alpha2": "KY","alpha3": "CYM","continent": "North America","island": true,"latitude": 19.513469,"longitude": -80.566956,"name": "Cayman Islands","territory": "GB"},
  {"alpha2": "CF","alpha3": "CAF","continent": "Africa","island": false,"latitude": 6.611111,"longitude": 20.939444,"name": "Central African Republic","territory": false},
  {"alpha2": "TD","alpha3": "TCD","continent": "Africa","island": false,"latitude": 15.454166,"longitude": 18.732207,"name": "Chad","territory": false},
  {"alpha2": "CL","alpha3": "CHL","continent": "South America","island": false,"latitude": -35.675147,"longitude": -71.542969,"name": "Chile","territory": false},
  {"alpha2": "CN","alpha3": "CHN","continent": "Asia","island": false,"latitude": 35.86166,"longitude": 104.195397,"name": "China","territory": false},
  {"alpha2": "CO","alpha3": "COL","continent": "South America","island": false,"latitude": 4.570868,"longitude": -74.297333,"name": "Colombia","territory": false},
  {"alpha2": "KM","alpha3": "COM","continent": "Africa","island": true,"latitude": -11.875001,"longitude": 43.872219,"name": "Comoros","territory": false},
  {"alpha2": "CK","alpha3": "COK","continent": "Oceania","island": true,"latitude": -21.236736,"longitude": -159.777671,"name": "Cook Islands","territory": false},
  {"alpha2": "CR","alpha3": "CRI","continent": "North America","island": false,"latitude": 9.748917,"longitude": -83.753428,"name": "Costa Rica","territory": false},
  {"alpha2": "HR","alpha3": "HRV","continent": "Europe","island": false,"latitude": 45.1,"longitude": 15.2,"name": "Croatia","territory": false},
  {"alpha2": "CU","alpha3": "CUB","continent": "North America","island": false,"latitude": 21.521757,"longitude": -77.781167,"name": "Cuba","territory": false},
  {"alpha2": "CW","alpha3": "CUW","continent": "North America","island": true,"latitude": 12.2086001,"longitude": -69.0730846,"name": "Curaçao","territory": "NL"},
  {"alpha2": "CY","alpha3": "CYP","continent": "Asia","island": false,"latitude": 35.126413,"longitude": 33.429859,"name": "Cyprus","territory": false},
  {"alpha2": "CZ","alpha3": "CZE","continent": "Europe","island": false,"latitude": 49.817492,"longitude": 15.472962,"name": "Czech Republic","territory": false},
  {"alpha2": "CI","alpha3": "CIV","continent": "Africa","island": false,"latitude": 7.539989,"longitude": -5.54708,"name": "Côte d'Ivoire","territory": false},
  {"alpha2": "CD","alpha3": "COD","continent": "Africa","island": false,"latitude": -4.038333,"longitude": 21.758664,"name": "Democratic Republic of the Congo","territory": false},
  {"alpha2": "DK","alpha3": "DNK","continent": "Europe","island": false,"latitude": 56.26392,"longitude": 9.501785,"name": "Denmark","territory": false},
  {"alpha2": "DJ","alpha3": "DJI","continent": "Africa","island": false,"latitude": 11.825138,"longitude": 42.590275,"name": "Djibouti","territory": false},
  {"alpha2": "DM","alpha3": "DMA","continent": "North America","island": true,"latitude": 15.414999,"longitude": -61.370976,"name": "Dominica","territory": false},
  {"alpha2": "DO","alpha3": "DOM","continent": "North America","island": false,"latitude": 18.735693,"longitude": -70.162651,"name": "Dominican Republic","territory": false},
  {"alpha2": "EC","alpha3": "ECU","continent": "South America","island": false,"latitude": -1.831239,"longitude": -78.183406,"name": "Ecuador","territory": false},
  {"alpha2": "EG","alpha3": "EGY","continent": "Africa","island": false,"latitude": 26.820553,"longitude": 30.802498,"name": "Egypt","territory": false},
  {"alpha2": "SV","alpha3": "SLV","continent": "North America","island": false,"latitude": 13.794185,"longitude": -88.89653,"name": "El Salvador","territory": false},
  {"alpha2": "GQ","alpha3": "GNQ","continent": "Africa","island": false,"latitude": 1.650801,"longitude": 10.267895,"name": "Equatorial Guinea","territory": false},
  {"alpha2": "ER","alpha3": "ERI","continent": "Africa","island": false,"latitude": 15.179384,"longitude": 39.782334,"name": "Eritrea","territory": false},
  {"alpha2": "EE","alpha3": "EST","continent": "Europe","island": false,"latitude": 58.595272,"longitude": 25.013607,"name": "Estonia","territory": false},
  {"alpha2": "SZ","alpha3": "SWZ","continent": "Africa","island": false,"latitude": -26.522503,"longitude": 31.465866,"name": "Eswatini","territory": false},
  {"alpha2": "ET","alpha3": "ETH","continent": "Africa","island": false,"latitude": 9.145,"longitude": 40.489673,"name": "Ethiopia","territory": false},
  {"alpha2": "FK","alpha3": "FLK","continent": "South America","island": true,"latitude": -51.796253,"longitude": -59.523613,"name": "Falkland Islands (Malvinas)","territory": "GB"},
  {"alpha2": "FO","alpha3": "FRO","continent": "Europe","island": true,"latitude": 62.1362024,"longitude": -7.0631968,"name": "Faroe Islands","territory": false},
  {"alpha2": "FM","alpha3": "FSM","continent": "Oceania","island": true,"latitude": 7.425554,"longitude": 150.550812,"name": "Federated States of Micronesia","territory": false},
  {"alpha2": "FJ","alpha3": "FJI","continent": "Oceania","island": true,"latitude": -16.578193,"longitude": 179.414413,"name": "Fiji","territory": false},
  {"alpha2": "FI","alpha3": "FIN","continent": "Europe","island": false,"latitude": 61.92411,"longitude": 25.748151,"name": "Finland","territory": false},
  {"alpha2": "FR","alpha3": "FRA","continent": "Europe","island": false,"latitude": 46.227638,"longitude": 2.213749,"name": "France","territory": false},
  {"alpha2": "PF","alpha3": "PYF","continent": "Oceania","island": true,"latitude": -17.679742,"longitude": -149.406843,"name": "French Polynesia","territory": "FR"},
  {"alpha2": "TF","alpha3": "ATF","continent": "Antarctica","island": false,"latitude": -49.280366,"longitude": 69.348557,"name": "French Southern Territories","territory": "FR"},
  {"alpha2": "GA","alpha3": "GAB","continent": "Africa","island": false,"latitude": -0.803689,"longitude": 11.609444,"name": "Gabon","territory": false},
  {"alpha2": "GM","alpha3": "GMB","continent": "Africa","island": false,"latitude": 13.443182,"longitude": -15.310139,"name": "Gambia","territory": false},
  {"alpha2": "GE","alpha3": "GEO","continent": "Asia","island": false,"latitude": 42.315407,"longitude": 43.356892,"name": "Georgia","territory": false,"wikipedia": "Georgia (country)"},
  {"alpha2": "DE","alpha3": "DEU","continent": "Europe","island": false,"latitude": 51.165691,"longitude": 10.451526,"name": "Germany","territory": false},
  {"alpha2": "GH","alpha3": "GHA","continent": "Africa","island": false,"latitude": 7.946527,"longitude": -1.023194,"name": "Ghana","territory": false},
  {"alpha2": "GI","alpha3": "GIB","continent": "Europe","island": false,"latitude": 36.137741,"longitude": -5.345374,"name": "Gibraltar","territory": "GB"},
  {"alpha2": "GR","alpha3": "GRC","continent": "Europe","island": false,"latitude": 39.074208,"longitude": 21.824312,"name": "Greece","territory": false},
  {"alpha2": "GL","alpha3": "GRL","continent": "North America","island": true,"latitude": 71.706936,"longitude": -42.604303,"name": "Greenland","territory": false},
  {"alpha2": "GD","alpha3": "GRD","continent": "North America","island": false,"latitude": 12.262776,"longitude": -61.604171,"name": "Grenada","territory": false},
  {"alpha2": "GU","alpha3": "GUM","continent": "Oceania","island": true,"latitude": 13.444304,"longitude": 144.793731,"name": "Guam","territory": "US"},
  {"alpha2": "GT","alpha3": "GTM","continent": "North America","island": false,"latitude": 15.783471,"longitude": -90.230759,"name": "Guatemala","territory": false},
  {"alpha2": "GG","alpha3": "GGY","continent": "Europe","island": true,"latitude": 49.465691,"longitude": -2.585278,"name": "Guernsey","territory": false},
  {"alpha2": "GN","alpha3": "GIN","continent": "Africa","island": false,"latitude": 9.945587,"longitude": -9.696645,"name": "Guinea","territory": false},
  {"alpha2": "GW","alpha3": "GNB","continent": "Africa","island": false,"latitude": 11.803749,"longitude": -15.180413,"name": "Guinea-Bissau","territory": false},
  {"alpha2": "GY","alpha3": "GUY","continent": "South America","island": false,"latitude": 4.860416,"longitude": -58.93018,"name": "Guyana","territory": false},
  {"alpha2": "HT","alpha3": "HTI","continent": "North America","island": false,"latitude": 18.971187,"longitude": -72.285215,"name": "Haiti","territory": false},
  {"alpha2": "HM","alpha3": "HMD","continent": "Antarctica","island": true,"latitude": -53.08181,"longitude": 73.504158,"name": "Heard Island and McDonald Islands","territory": "AU"},
  {"alpha2": "HN","alpha3": "HND","continent": "North America","island": false,"latitude": 15.199999,"longitude": -86.241905,"name": "Honduras","territory": false},
  {"alpha2": "HK","alpha3": "HKG","continent": "Asia","island": false,"latitude": 22.396428,"longitude": 114.109497,"name": "Hong Kong","territory": "CN"},
  {"alpha2": "HU","alpha3": "HUN","continent": "Europe","island": false,"latitude": 47.162494,"longitude": 19.503304,"name": "Hungary","territory": false},
  {"alpha2": "IS","alpha3": "ISL","continent": "Europe","island": true,"latitude": 64.963051,"longitude": -19.020835,"name": "Iceland","territory": false},
  {"alpha2": "IN","alpha3": "IND","continent": "Asia","island": false,"latitude": 20.593684,"longitude": 78.96288,"name": "India","territory": false},
  {"alpha2": "ID","alpha3": "IDN","continent": "Asia","island": true,"latitude": -0.789275,"longitude": 113.921327,"name": "Indonesia","territory": false},
  {"alpha2": "IR","alpha3": "IRN","continent": "Asia","island": false,"latitude": 32.427908,"longitude": 53.688046,"name": "Iran","territory": false},
  {"alpha2": "IQ","alpha3": "IRQ","continent": "Asia","island": false,"latitude": 33.223191,"longitude": 43.679291,"name": "Iraq","territory": false},
  {"alpha2": "IE","alpha3": "IRL","continent": "Europe","island": true,"latitude": 53.41291,"longitude": -8.24389,"name": "Ireland","territory": false},
  {"alpha2": "IM","alpha3": "IMN","continent": "Europe","island": true,"latitude": 54.236107,"longitude": -4.548056,"name": "Isle of Man","territory": "GB"},
  {"alpha2": "IL","alpha3": "ISR","continent": "Asia","island": false,"latitude": 31.046051,"longitude": 34.851612,"name": "Israel","territory": false},
  {"alpha2": "IT","alpha3": "ITA","continent": "Europe","island": false,"latitude": 41.87194,"longitude": 12.56738,"name": "Italy","territory": false},
  {"alpha2": "JM","alpha3": "JAM","continent": "North America","island": true,"latitude": 18.109581,"longitude": -77.297508,"name": "Jamaica","territory": false},
  {"alpha2": "JP","alpha3": "JPN","continent": "Asia","island": true,"latitude": 36.204824,"longitude": 138.252924,"name": "Japan","territory": false},
  {"alpha2": "JE","alpha3": "JEY","continent": "Europe","island": true,"latitude": 49.214439,"longitude": -2.13125,"name": "Jersey","territory": "GB"},
  {"alpha2": "JO","alpha3": "JOR","continent": "Asia","island": false,"latitude": 30.585164,"longitude": 36.238414,"name": "Jordan","territory": false},
  {"alpha2": "KZ","alpha3": "KAZ","continent": "Asia","island": false,"latitude": 48.019573,"longitude": 66.923684,"name": "Kazakhstan","territory": false},
  {"alpha2": "KE","alpha3": "KEN","continent": "Africa","island": false,"latitude": -0.023559,"longitude": 37.906193,"name": "Kenya","territory": false},
  {"alpha2": "KI","alpha3": "KIR","continent": "Oceania","island": true,"latitude": -3.370417,"longitude": -168.734039,"name": "Kiribati","territory": false},
  {"alpha2": "XK","alpha3": "RKS","continent": "Europe","island": false,"latitude": 42.602636,"longitude": 20.902977,"name": "Kosovo","territory": false},
  {"alpha2": "KW","alpha3": "KWT","continent": "Asia","island": false,"latitude": 29.31166,"longitude": 47.481766,"name": "Kuwait","territory": false},
  {"alpha2": "KG","alpha3": "KGZ","continent": "Asia","island": false,"latitude": 41.20438,"longitude": 74.766098,"name": "Kyrgyzstan","territory": false},
  {"alpha2": "LA","alpha3": "LAO","continent": "Asia","island": false,"latitude": 19.85627,"longitude": 102.495496,"name": "Laos","territory": false},
  {"alpha2": "LV","alpha3": "LVA","continent": "Europe","island": false,"latitude": 56.879635,"longitude": 24.603189,"name": "Latvia","territory": false},
  {"alpha2": "LB","alpha3": "LBN","continent": "Asia","island": false,"latitude": 33.854721,"longitude": 35.862285,"name": "Lebanon","territory": false},
  {"alpha2": "LS","alpha3": "LSO","continent": "Africa","island": false,"latitude": -29.609988,"longitude": 28.233608,"name": "Lesotho","territory": false},
  {"alpha2": "LR","alpha3": "LBR","continent": "Africa","island": false,"latitude": 6.428055,"longitude": -9.429499,"name": "Liberia","territory": false},
  {"alpha2": "LY","alpha3": "LBY","continent": "Africa","island": false,"latitude": 26.3351,"longitude": 17.228331,"name": "Libya","territory": false},
  {"alpha2": "LI","alpha3": "LIE","continent": "Europe","island": false,"latitude": 47.166,"longitude": 9.555373,"name": "Liechtenstein","territory": false},
  {"alpha2": "LT","alpha3": "LTU","continent": "Europe","island": false,"latitude": 55.169438,"longitude": 23.881275,"name": "Lithuania","territory": false},
  {"alpha2": "LU","alpha3": "LUX","continent": "Europe","island": false,"latitude": 49.815273,"longitude": 6.129583,"name": "Luxembourg","territory": false},
  {"alpha2": "MO","alpha3": "MAC","continent": "Asia","island": false,"latitude": 22.198745,"longitude": 113.543873,"name": "Macao","territory": "CN"},
  {"alpha2": "MG","alpha3": "MDG","continent": "Africa","island": true,"latitude": -18.766947,"longitude": 46.869107,"name": "Madagascar","territory": false},
  {"alpha2": "MW","alpha3": "MWI","continent": "Africa","island": false,"latitude": -13.254308,"longitude": 34.301525,"name": "Malawi","territory": false},
  {"alpha2": "MY","alpha3": "MYS","continent": "Asia","island": false,"latitude": 4.210484,"longitude": 101.975766,"name": "Malaysia","territory": false},
  {"alpha2": "MV","alpha3": "MDV","continent": "Asia","island": true,"latitude": 3.202778,"longitude": 73.22068,"name": "Maldives","territory": false},
  {"alpha2": "ML","alpha3": "MLI","continent": "Africa","island": false,"latitude": 17.570692,"longitude": -3.996166,"name": "Mali","territory": false},
  {"alpha2": "MT","alpha3": "MLT","continent": "Europe","island": true,"latitude": 35.937496,"longitude": 14.375416,"name": "Malta","territory": false},
  {"alpha2": "MH","alpha3": "MHL","continent": "Oceania","island": true,"latitude": 7.131474,"longitude": 171.184478,"name": "Marshall Islands","territory": false},
  {"alpha2": "MR","alpha3": "MRT","continent": "Africa","island": false,"latitude": 21.00789,"longitude": -10.940835,"name": "Mauritania","territory": false},
  {"alpha2": "MU","alpha3": "MUS","continent": "Africa","island": true,"latitude": -20.348404,"longitude": 57.552152,"name": "Mauritius","territory": false},
  {"alpha2": "MX","alpha3": "MEX","continent": "North America","island": false,"latitude": 23.634501,"longitude": -102.552784,"name": "Mexico","territory": false},
  {"alpha2": "MD","alpha3": "MDA","continent": "Europe","island": false,"latitude": 47.411631,"longitude": 28.369885,"name": "Moldova","territory": false},
  {"alpha2": "MC","alpha3": "MCO","continent": "Europe","island": false,"latitude": 43.750298,"longitude": 7.412841,"name": "Monaco","territory": false},
  {"alpha2": "MN","alpha3": "MNG","continent": "Asia","island": false,"latitude": 46.862496,"longitude": 103.846656,"name": "Mongolia","territory": false},
  {"alpha2": "ME","alpha3": "MNE","continent": "Europe","island": false,"latitude": 42.708678,"longitude": 19.37439,"name": "Montenegro","territory": false},
  {"alpha2": "MS","alpha3": "MSR","continent": "North America","island": true,"latitude": 16.742498,"longitude": -62.187366,"name": "Montserrat","territory": "GB"},
  {"alpha2": "MA","alpha3": "MAR","continent": "Africa","island": false,"latitude": 31.791702,"longitude": -7.09262,"name": "Morocco","territory": false},
  {"alpha2": "MZ","alpha3": "MOZ","continent": "Africa","island": false,"latitude": -18.665695,"longitude": 35.529562,"name": "Mozambique","territory": false},
  {"alpha2": "MM","alpha3": "MMR","continent": "Asia","island": false,"latitude": 21.913965,"longitude": 95.956223,"name": "Myanmar","territory": false},
  {"alpha2": "NA","alpha3": "NAM","continent": "Africa","island": false,"latitude": -22.95764,"longitude": 18.49041,"name": "Namibia","territory": false},
  {"alpha2": "NR","alpha3": "NRU","continent": "Oceania","island": true,"latitude": -0.522778,"longitude": 166.931503,"name": "Nauru","territory": false},
  {"alpha2": "NP","alpha3": "NPL","continent": "Asia","island": false,"latitude": 28.394857,"longitude": 84.124008,"name": "Nepal","territory": false},
  {"alpha2": "NL","alpha3": "NLD","continent": "Europe","island": false,"latitude": 52.132633,"longitude": 5.291266,"name": "Netherlands","territory": false},
  {"alpha2": "NC","alpha3": "NCL","continent": "Oceania","island": true,"latitude": -20.904305,"longitude": 165.618042,"name": "New Caledonia","territory": "FR"},
  {"alpha2": "NZ","alpha3": "NZL","continent": "Oceania","island": true,"latitude": -40.900557,"longitude": 174.885971,"name": "New Zealand","territory": false},
  {"alpha2": "NI","alpha3": "NIC","continent": "North America","island": false,"latitude": 12.865416,"longitude": -85.207229,"name": "Nicaragua","territory": false},
  {"alpha2": "NE","alpha3": "NER","continent": "Africa","island": false,"latitude": 17.607789,"longitude": 8.081666,"name": "Niger","territory": false},
  {"alpha2": "NG","alpha3": "NGA","continent": "Africa","island": false,"latitude": 9.081999,"longitude": 8.675277,"name": "Nigeria","territory": false},
  {"alpha2": "NU","alpha3": "NIU","continent": "Oceania","island": true,"latitude": -19.054445,"longitude": -169.867233,"name": "Niue","territory": false},
  {"alpha2": "NF","alpha3": "NFK","continent": "Oceania","island": true,"latitude": -29.040835,"longitude": 167.954712,"name": "Norfolk Island","territory": "AU"},
  {"alpha2": "KP","alpha3": "PRK","continent": "Asia","island": false,"latitude": 40.339852,"longitude": 127.510093,"name": "North Korea","territory": false},
  {"alpha2": "MK","alpha3": "MKD","continent": "Europe","island": false,"latitude": 41.608635,"longitude": 21.745275,"name": "North Macedonia","territory": false},
  {"alpha2": "MP","alpha3": "MNP","continent": "Oceania","island": true,"latitude": 15.2196996,"longitude": 145.7548987,"name": "Northern Mariana Islands","territory": "US"},
  {"alpha2": "NO","alpha3": "NOR","continent": "Europe","island": false,"latitude": 60.472024,"longitude": 8.468946,"name": "Norway","territory": false},
  {"alpha2": "PS","alpha3": "PSE","continent": "Asia","island": false,"latitude": 31.952162,"longitude": 35.233154,"name": "Occupied Palestinian Territory","territory": false},
  {"alpha2": "OM","alpha3": "OMN","continent": "Asia","island": false,"latitude": 21.512583,"longitude": 55.923255,"name": "Oman","territory": false},
  {"alpha2": "PK","alpha3": "PAK","continent": "Asia","island": false,"latitude": 30.375321,"longitude": 69.345116,"name": "Pakistan","territory": false},
  {"alpha2": "PW","alpha3": "PLW","continent": "Oceania","island": true,"latitude": 7.51498,"longitude": 134.58252,"name": "Palau","territory": false},
  {"alpha2": "PA","alpha3": "PAN","continent": "North America","island": false,"latitude": 8.537981,"longitude": -80.782127,"name": "Panama","territory": false},
  {"alpha2": "PG","alpha3": "PNG","continent": "Oceania","island": true,"latitude": -6.314993,"longitude": 143.95555,"name": "Papua New Guinea","territory": false},
  {"alpha2": "PY","alpha3": "PRY","continent": "South America","island": false,"latitude": -23.442503,"longitude": -58.443832,"name": "Paraguay","territory": false},
  {"alpha2": "PE","alpha3": "PER","continent": "South America","island": false,"latitude": -9.189967,"longitude": -75.015152,"name": "Peru","territory": false},
  {"alpha2": "PH","alpha3": "PHL","continent": "Asia","island": true,"latitude": 12.879721,"longitude": 121.774017,"name": "Philippines","territory": false},
  {"alpha2": "PN","alpha3": "PCN","continent": "Oceania","island": true,"latitude": -24.3679428,"longitude": -128.32606,"name": "Pitcairn","territory": "GB"},
  {"alpha2": "PL","alpha3": "POL","continent": "Europe","island": false,"latitude": 51.919438,"longitude": 19.145136,"name": "Poland","territory": false},
  {"alpha2": "PT","alpha3": "PRT","continent": "Europe","island": false,"latitude": 39.399872,"longitude": -8.224454,"name": "Portugal","territory": false},
  {"alpha2": "PR","alpha3": "PRI","continent": "North America","island": true,"latitude": 18.220833,"longitude": -66.590149,"name": "Puerto Rico","territory": "US"},
  {"alpha2": "QA","alpha3": "QAT","continent": "Asia","island": false,"latitude": 25.354826,"longitude": 51.183884,"name": "Qatar","territory": false},
  {"alpha2": "CG","alpha3": "COG","continent": "Africa","island": false,"latitude": -0.228021,"longitude": 15.827659,"name": "Republic of the Congo","territory": false},
  {"alpha2": "RO","alpha3": "ROU","continent": "Europe","island": false,"latitude": 45.943161,"longitude": 24.96676,"name": "Romania","territory": false},
  {"alpha2": "RU","alpha3": "RUS","continent": "Europe","island": false,"latitude": 61.52401,"longitude": 105.318756,"name": "Russia","territory": false},
  {"alpha2": "RW","alpha3": "RWA","continent": "Africa","island": false,"latitude": -1.940278,"longitude": 29.873888,"name": "Rwanda","territory": false},
  {"alpha2": "BL","alpha3": "BLM","continent": "North America","island": true,"latitude": 17.9,"longitude": 62.8333,"name": "Saint Barthélemy","territory": false},
  {"alpha2": "SH","alpha3": "SHN","continent": "Africa","island": true,"latitude": -24.143474,"longitude": -10.030696,"name": "Saint Helena, Ascension and Tristan da Cunha","territory": "GB"},
  {"alpha2": "KN","alpha3": "KNA","continent": "North America","island": true,"latitude": 17.357822,"longitude": -62.782998,"name": "Saint Kitts and Nevis","territory": false},
  {"alpha2": "LC","alpha3": "LCA","continent": "North America","island": true,"latitude": 13.909444,"longitude": -60.978893,"name": "Saint Lucia","territory": false},
  {"alpha2": "MF","alpha3": "MAF","continent": "North America","island": true,"latitude": 18.06129,"longitude": -63.0553287,"name": "Saint Martin (French)","territory": "FR","wikipedia": "Collectivity of Saint Martin"},
  {"alpha2": "PM","alpha3": "SPM","continent": "North America","island": true,"latitude": 46.941936,"longitude": -56.27111,"name": "Saint Pierre and Miquelon","territory": "FR"},
  {"alpha2": "VC","alpha3": "VCT","continent": "North America","island": true,"latitude": 13.3125667,"longitude": -61.1752887,"name": "Saint Vincent and the Grenadines","territory": false},
  {"alpha2": "WS","alpha3": "WSM","continent": "Oceania","island": true,"latitude": -13.759029,"longitude": -172.104629,"name": "Samoa","territory": false},
  {"alpha2": "SM","alpha3": "SMR","continent": "Europe","island": false,"latitude": 43.94236,"longitude": 12.457777,"name": "San Marino","territory": false},
  {"alpha2": "ST","alpha3": "STP","continent": "Africa","island": true,"latitude": 0.18636,"longitude": 6.613081,"name": "Sao Tome and Principe","territory": false},
  {"alpha2": "SA","alpha3": "SAU","continent": "Asia","island": false,"latitude": 23.885942,"longitude": 45.079162,"name": "Saudi Arabia","territory": false},
  {"alpha2": "SN","alpha3": "SEN","continent": "Africa","island": false,"latitude": 14.497401,"longitude": -14.452362,"name": "Senegal","territory": false},
  {"alpha2": "RS","alpha3": "SRB","continent": "Europe","island": false,"latitude": 44.016521,"longitude": 21.005859,"name": "Serbia","territory": false},
  {"alpha2": "SC","alpha3": "SYC","continent": "Africa","island": true,"latitude": -4.679574,"longitude": 55.491977,"name": "Seychelles","territory": false},
  {"alpha2": "SL","alpha3": "SLE","continent": "Africa","island": false,"latitude": 8.460555,"longitude": -11.779889,"name": "Sierra Leone","territory": false},
  {"alpha2": "SG","alpha3": "SGP","continent": "Asia","island": true,"latitude": 1.352083,"longitude": 103.819836,"name": "Singapore","territory": false},
  {"alpha2": "SX","alpha3": "SXM","continent": "North America","island": true,"latitude": 18.0425,"longitude": -63.0548,"name": "Sint Maarten (Dutch)","territory": "NL","wikipedia": "Sint Maarten"},
  {"alpha2": "SK","alpha3": "SVK","continent": "Europe","island": false,"latitude": 48.669026,"longitude": 19.699024,"name": "Slovakia","territory": false},
  {"alpha2": "SI","alpha3": "SVN","continent": "Europe","island": false,"latitude": 46.151241,"longitude": 14.995463,"name": "Slovenia","territory": false},
  {"alpha2": "SB","alpha3": "SLB","continent": "Oceania","island": true,"latitude": -9.64571,"longitude": 160.156194,"name": "Solomon Islands","territory": false},
  {"alpha2": "SO","alpha3": "SOM","continent": "Africa","island": false,"latitude": 5.152149,"longitude": 46.199616,"name": "Somalia","territory": false},
  {"alpha2": "S2","alpha3": "SO2","continent": "Africa","island": false,"latitude": 9.3624725,"longitude": 46.6984754,"name": "Somaliland","territory": false},
  {"alpha2": "ZA","alpha3": "ZAF","continent": "Africa","island": false,"latitude": -30.559482,"longitude": 22.937506,"name": "South Africa","territory": false},
  {"alpha2": "GS","alpha3": "SGS","continent": "Antarctica","island": true,"latitude": -54.429579,"longitude": -36.587909,"name": "South Georgia and the South Sandwich Islands","territory": "GB"},
  {"alpha2": "KR","alpha3": "KOR","continent": "Asia","island": false,"latitude": 35.907757,"longitude": 127.766922,"name": "South Korea","territory": false},
  {"alpha2": "SS","alpha3": "SSD","continent": "Africa","island": false,"latitude": 4.51,"longitude": 31.36,"name": "South Sudan","territory": false},
  {"alpha2": "ES","alpha3": "ESP","continent": "Europe","island": false,"latitude": 40.463667,"longitude": -3.74922,"name": "Spain","territory": false},
  {"alpha2": "LK","alpha3": "LKA","continent": "Asia","island": true,"latitude": 7.873054,"longitude": 80.771797,"name": "Sri Lanka","territory": false},
  {"alpha2": "SD","alpha3": "SDN","continent": "Africa","island": false,"latitude": 12.862807,"longitude": 30.217636,"name": "Sudan","territory": false},
  {"alpha2": "SR","alpha3": "SUR","continent": "South America","island": false,"latitude": 3.919305,"longitude": -56.027783,"name": "Suriname","territory": false},
  {"alpha2": "SE","alpha3": "SWE","continent": "Europe","island": false,"latitude": 60.128161,"longitude": 18.643501,"name": "Sweden","territory": false},
  {"alpha2": "CH","alpha3": "CHE","continent": "Europe","island": false,"latitude": 46.818188,"longitude": 8.227512,"name": "Switzerland","territory": false},
  {"alpha2": "SY","alpha3": "SYR","continent": "Asia","island": false,"latitude": 34.802075,"longitude": 38.996815,"name": "Syrian Arab Republic","territory": false},
  {"alpha2": "TW","alpha3": "TWN","continent": "Asia","island": true,"latitude": 23.69781,"longitude": 120.960515,"name": "Taiwan","territory": "CN"},
  {"alpha2": "TJ","alpha3": "TJK","continent": "Asia","island": false,"latitude": 38.861034,"longitude": 71.276093,"name": "Tajikistan","territory": false},
  {"alpha2": "TZ","alpha3": "TZA","continent": "Africa","island": false,"latitude": -6.369028,"longitude": 34.888822,"name": "Tanzania","territory": false},
  {"alpha2": "TH","alpha3": "THA","continent": "Asia","island": false,"latitude": 15.870032,"longitude": 100.992541,"name": "Thailand","territory": false},
  {"alpha2": "BS","alpha3": "BHS","continent": "North America","island": true,"latitude": 25.03428,"longitude": -77.39628,"name": "The Bahamas","territory": false},
  {"alpha2": "TL","alpha3": "TLS","continent": "Asia","island": true,"latitude": -8.874217,"longitude": 125.727539,"name": "Timor-Leste","territory": false},
  {"alpha2": "TG","alpha3": "TGO","continent": "Africa","island": false,"latitude": 8.619543,"longitude": 0.824782,"name": "Togo","territory": false},
  {"alpha2": "TO","alpha3": "TON","continent": "Oceania","island": true,"latitude": -21.178986,"longitude": -175.198242,"name": "Tonga","territory": false},
  {"alpha2": "TT","alpha3": "TTO","continent": "North America","island": true,"latitude": 10.691803,"longitude": -61.222503,"name": "Trinidad and Tobago","territory": false},
  {"alpha2": "TN","alpha3": "TUN","continent": "Africa","island": false,"latitude": 33.886917,"longitude": 9.537499,"name": "Tunisia","territory": false},
  {"alpha2": "TR","alpha3": "TUR","continent": "Europe","island": false,"latitude": 38.963745,"longitude": 35.243322,"name": "Turkey","territory": false},
  {"alpha2": "TM","alpha3": "TKM","continent": "Asia","island": false,"latitude": 38.969719,"longitude": 59.556278,"name": "Turkmenistan","territory": false},
  {"alpha2": "TC","alpha3": "TCA","continent": "North America","island": true,"latitude": 21.8254035,"longitude": -71.7931088,"name": "Turks and Caicos Islands","territory": "GB"},
  {"alpha2": "TV","alpha3": "TUV","continent": "Oceania","island": true,"latitude": -8.5202277,"longitude": 179.1982766,"name": "Tuvalu","territory": false},
  {"alpha2": "UM","alpha3": "UMI","continent": "Oceania","island": true,"latitude": 19.2823,"longitude": 166.647,"name": "U.S. Minor Outlying Islands","territory": "US"},
  {"alpha2": "VI","alpha3": "VIR","continent": "North America","island": true,"latitude": 17.7684995,"longitude": -64.7833434,"name": "U.S. Virgin Islands","territory": "US"},
  {"alpha2": "UG","alpha3": "UGA","continent": "Africa","island": false,"latitude": 1.373333,"longitude": 32.290275,"name": "Uganda","territory": false},
  {"alpha2": "UA","alpha3": "UKR","continent": "Europe","island": false,"latitude": 48.379433,"longitude": 31.16558,"name": "Ukraine","territory": false},
  {"alpha2": "AE","alpha3": "ARE","continent": "Asia","island": false,"latitude": 23.424076,"longitude": 53.847818,"name": "United Arab Emirates","territory": false},
  {"alpha2": "GB","alpha3": "GBR","continent": "Europe","island": false,"latitude": 55.378051,"longitude": -3.435973,"name": "United Kingdom","territory": false},
  {"alpha2": "US","alpha3": "USA","continent": "North America","island": false,"latitude": 37.09024,"longitude": -95.712891,"name": "United States","territory": false},
  {"alpha2": "UY","alpha3": "URY","continent": "South America","island": false,"latitude": -32.522779,"longitude": -55.765835,"name": "Uruguay","territory": false},
  {"alpha2": "UZ","alpha3": "UZB","continent": "Asia","island": false,"latitude": 41.377491,"longitude": 64.585262,"name": "Uzbekistan","territory": false},
  {"alpha2": "VU","alpha3": "VUT","continent": "Oceania","island": false,"latitude": -15.376706,"longitude": 166.959158,"name": "Vanuatu","territory": false},
  {"alpha2": "VA","alpha3": "VAT","continent": "Europe","island": false,"latitude": 41.9027581,"longitude": 12.4522863,"name": "Vatican City State","territory": false},
  {"alpha2": "VE","alpha3": "VEN","continent": "South America","island": false,"latitude": 6.42375,"longitude": -66.58973,"name": "Venezuela","territory": false},
  {"alpha2": "VN","alpha3": "VNM","continent": "Asia","island": false,"latitude": 14.058324,"longitude": 108.277199,"name": "Vietnam","territory": false},
  {"alpha2": "WF","alpha3": "WLF","continent": "Oceania","island": true,"latitude": -13.768752,"longitude": -177.156097,"name": "Wallis and Futuna","territory": "FR"},
  {"alpha2": "EH","alpha3": "ESH","continent": "Africa","island": false,"latitude": 24.215527,"longitude": -12.885834,"name": "Western Sahara","territory": false},
  {"alpha2": "YE","alpha3": "YEM","continent": "Asia","island": false,"latitude": 15.552727,"longitude": 48.516388,"name": "Yemen","territory": false},
  {"alpha2": "ZM","alpha3": "ZMB","continent": "Africa","island": false,"latitude": -13.133897,"longitude": 27.849332,"name": "Zambia","territory": false},
  {"alpha2": "ZW","alpha3": "ZWE","continent": "Africa","island": false,"latitude": -19.015438,"longitude": 29.154857,"name": "Zimbabwe","territory": false},
  {"alpha2": "AX","alpha3": "ALA","continent": "Europe","island": false,"latitude": 60.1785,"longitude": 19.9156,"name": "Åland Islands","territory": false}
]